[
	{
		"id": "13/aix-en-provence/cathedrale-saint-sauveur",
		"name": "Cathédrale Saint Sauveur",
		"type": "cathedrale",
		"community": "Aix - Saint Sauveur",
		"communityId": "aa/13/cathedrale",
		"communityType": "Paroisse",
		"sector": "",
		"sectorType": "secteur",
		"networkId": "aa",
		"address": "34 Place des Martyrs de la résistance",
		"zipcode": "13100",
		"city": "AIX EN PROVENCE",
		"picture": "https://lh3.googleusercontent.com/7jWr2LWJSA1DHdu2ahqmK5KtkMCRqSpmOOfe1IN_qgXTKcVstbLwZyAAEP-RSq5VvHqgkRWCWYTLBKFf9pyD2xjh=s85",
		"nextcelebration": "2018-04-15 10:30:00",
		"latitude": 43.5314006,
		"longitude": 5.447656,
		"temporary": false
	},
	{
		"id": "13/aix-en-provence/chapelle-des-bourras",
		"name": "Chapelle des Bourras",
		"type": "chapelle",
		"community": "Aix - Saint Sauveur",
		"communityId": "aa/13/cathedrale",
		"communityType": "Paroisse",
		"sector": "",
		"sectorType": "secteur",
		"networkId": "aa",
		"address": "15 Rue Lieutaud",
		"zipcode": "13100",
		"city": "Aix-en-Provence",
		"picture": "https://lh3.googleusercontent.com/bx2QfDtzQb-sXYz-UtTsaYHLw0QBs-KLxVhdF73ccEncjNGEFncJOrCXM-lZkh196E7MB9p3Djwe2Iv5fuDWGo6t=s85",
		"nextcelebration": "2018-04-15 10:00:00",
		"latitude": 43.5291319,
		"longitude": 5.4452348,
		"temporary": false
	},
	{
		"id": "13/aix-en-provence/chapelle-de-la-mission",
		"name": "Chapelle des Oblats (Eglise de la Mission)",
		"type": "chapelle",
		"community": "Aix - Saint Sauveur",
		"communityId": "aa/13/cathedrale",
		"communityType": "Paroisse",
		"sector": "",
		"sectorType": "secteur",
		"networkId": "aa",
		"address": "60, Cours Mirabeau",
		"zipcode": "13100",
		"city": "AIX EN PROVENCE",
		"picture": "https://lh3.googleusercontent.com/YUX2G9ifgzLium2uoa8opk2p5WCE9_sz2VwxnJ1UA71E2FA3gq9TZ9tDUmnzDefQ_W_2OMRPkXEzAhoZCKuDQw=s85",
		"nextcelebration": "2018-04-15 09:00:00",
		"latitude": 43.5269357,
		"longitude": 5.4513995,
		"temporary": false
	},
	{
		"id": "13/aix-en-provence/eglise-notre-dame-de-la-seds",
		"name": "Eglise Notre Dame de la Seds",
		"type": "église",
		"community": "Aix - Saint Sauveur",
		"communityId": "aa/13/cathedrale",
		"communityType": "Paroisse",
		"sector": "",
		"sectorType": "secteur",
		"networkId": "aa",
		"address": "22 avenue Jean Dalmas",
		"zipcode": "13090",
		"city": "Aix-en-Provence",
		"picture": "https://lh3.googleusercontent.com/b1X0Lc0W7XMcqv9fO-rUCCYH3cNunpC_KWc_InLOJPkCmgx6D5DWXftcIgSxPLLyAI98AQfzxJmjCDPMiKP5Lw=s85",
		"latitude": 43.5300483,
		"longitude": 5.4379072,
		"temporary": false
	},
	{
		"id": "13/eglise-ste-anne-des-pinchinats",
		"name": "Eglise Ste Anne des Pinchinats ",
		"type": "église",
		"community": "Aix - Saint Sauveur",
		"communityId": "aa/13/cathedrale",
		"communityType": "Paroisse",
		"sector": "",
		"sectorType": "secteur",
		"networkId": "aa",
		"address": "route des Pinchinats",
		"zipcode": "13100",
		"city": "Aix-en-Provence",
		"picture": "https://lh3.googleusercontent.com/thVsYmemviFnGWA7TjAWYxMQOFDqJhJNTDcE0rV5pk56hMkZ9sE32SZVIqsJ5jCNT75Tb8n9SjIn_xn1QfZj9Z4=s85",
		"nextcelebration": "2018-04-15 09:30:00",
		"latitude": 43.5560853,
		"longitude": 5.4701769,
		"temporary": false
	},
	{
		"id": "13/aix-en-provence/saint-esprit",
		"name": "Saint Esprit",
		"type": "eglise",
		"community": "Aix - Saint Sauveur",
		"communityId": "aa/13/cathedrale",
		"communityType": "Paroisse",
		"sector": "",
		"sectorType": "secteur",
		"networkId": "aa",
		"address": "40 rue Espariat",
		"zipcode": "13100",
		"city": "AIX EN PROVENCE",
		"picture": "https://lh3.googleusercontent.com/BKMt8pZJR9Evk2VoyX122qhlOt6iGRwRLfLA0-NIvvwaATOleG3pOSoqGHTfwljR877voovWuOoprOkHKwJXsA=s85",
		"nextcelebration": "2018-04-15 19:00:00",
		"latitude": 43.5273873,
		"longitude": 5.4472331,
		"temporary": false
	},
	{
		"id": "13/aix-en-provence/saint-eutrope",
		"name": "Saint Eutrope",
		"type": "eglise",
		"community": "Aix - Saint Sauveur",
		"communityId": "aa/13/cathedrale",
		"communityType": "Paroisse",
		"sector": "",
		"sectorType": "secteur",
		"networkId": "aa",
		"address": "1 Av. du Dr Bertrand",
		"zipcode": "13100",
		"city": "AIX EN PROVENCE",
		"picture": "https://lh3.googleusercontent.com/Ios5z0jlXk8pIn2fw91kGv2uqqbxLg4v0KeXrbU8-2PCsM_5JwDbdKJTs7g9qgWJ1Aluy0vr7OIwJOEqGQGr3aY=s85",
		"nextcelebration": "2018-04-15 10:30:00",
		"latitude": 43.5419297,
		"longitude": 5.45126,
		"temporary": false
	},
	{
		"id": "13/aix-en-provence/saint-jean-baptiste",
		"name": "Saint Jean Baptiste",
		"type": "eglise",
		"community": "Aix - Saint Sauveur",
		"communityId": "aa/13/cathedrale",
		"communityType": "Paroisse",
		"sector": "",
		"sectorType": "secteur",
		"networkId": "aa",
		"address": "34 cours Sextius",
		"zipcode": "13100",
		"city": "AIX EN PROVENCE",
		"picture": "https://lh3.googleusercontent.com/KnldTfWVEJOfNvNPyocH6kaEVHf00ox05eUWl4yDCNVfk-bLf7qtKKebtGidBxj50Eox_rJnSPgsTtHkjF4zD5s=s85",
		"nextcelebration": "2018-04-14 17:00:00",
		"latitude": 43.5288876,
		"longitude": 5.4438483,
		"temporary": false
	},
	{
		"id": "13/aix-en-provence/saint-thomas-de-villeneuve-maison-de-retraite",
		"name": "Saint Thomas de Villeneuve (maison de Retraite)",
		"type": "eglise",
		"community": "Aix - Saint Sauveur",
		"communityId": "aa/13/cathedrale",
		"communityType": "Paroisse",
		"sector": "",
		"sectorType": "secteur",
		"networkId": "aa",
		"address": "40 Cours des Arts et Métiers ",
		"zipcode": "13100",
		"city": "AIX EN PROVENCE",
		"picture": "https://lh3.googleusercontent.com/kjB4A6RF7WIvpHJwCHrAuZfQFpOheY4bklPG0s1szjaaiQC8JVVNxhLFJg22XrjmnqNYGSRX6MShqNM3NvkxHOI=s85",
		"nextcelebration": "2018-04-15 10:45:00",
		"latitude": 43.5313328,
		"longitude": 5.4602847,
		"temporary": false
	}
]
